[
  {
    "area": "全區",
    "name": "國立中興大學附屬臺中高級農業職業學校",
    "index": "1",
    "start": "4/8",
    "end": "4/10",
    "address": "40146 臺中市東區台中路283號",
    "lat": 24.1287304,
    "lng": 120.6851737
  },
  {
    "area": "全區",
    "name": "國立沙鹿高級工業職業學校",
    "index": "2",
    "start": "4/13",
    "end": "4/15上午",
    "address": "台中市沙鹿區臺灣大道7段823號",
    "lat": 24.2385428,
    "lng": 120.5678754
  },
  {
    "area": "中區",
    "name": "臺中市立大里高級中學",
    "address" : "臺中市大里區國中路365號",
    "lat":24.0951235,
    "lng":120.6789632,
    "logo": "http://www.dlsh.tc.edu.tw/images/index_footer_logo.png",
    "index": "2",
    "start": "4/13",
    "end": "4/15上午"
  },
  {
    "area": "南區",
    "name": "國立臺南第二高級中學",
    "address" : "704台南市北區北門路二段125號",
    "lat":23.0047818,
    "lng":120.2131732,
    "logo": "http://vmaker.tw/images/s_n2th.png",    
    "index": "2",
    "start": "4/13",
    "end": "4/15上午"
  },
  {
    "area": "東區",
    "name": "國立花蓮高級中學",
    "logo":"http://xn--fiqy9sq84advg4zczv1c.tw/files/bluebreeze_logo.png",
    "address":"(970)花蓮市民權路42號",
    "lat":23.9868546,
    "lng":121.6251715,
    "index": "2",
    "start": "4/13",
    "end": "4/15"
  },
  {
    "area": "高屏區",
    "name": "國立鳳山高中",
    "address":"83067 高雄市鳳山區光復路二段 130 號",
    "lat":22.6295343,
    "lng":120.3456976,
    "index": "3",
    "start": "4/14",
    "end": "4/16"
  },
  {
    "area": "全區",
    "name": "國立彰化師範大學附屬高級工業職業學校",
    "logo":"http://vmaker.tw/images/s_02.png",
    "index": "4",
    "start": "4/15",
    "end": "4/17",
    "address": "50075 彰化市和調里工校街 1 號",
    "lat": 24.0825928,
    "lng": 120.5559717
  },
  {
    "area": "中區",
    "name": "國立霧峰高級農工職業學校",
    "address":"41350臺中市霧峰區中正路1222號",
    "lat":24.072686,
    "lng":120.6997047,
    "index": "4",
    "start": "4/15",
    "end": "4/17"
  },
  {
    "area": "南區",
    "name": "國立臺南第一高級中學",
    "logo": "http://www.tnfsh.tn.edu.tw/ezfiles/0/1000/sys_1000_5047883_27719.png",
    "address": "701台南市民族路一段一號",
    "lat":22.9941884,
    "lng":120.2159912,
    "index": "4",
    "start": "4/15",
    "end": "4/17"
  },
  {
    "area": "東區",
    "name": "國立花蓮高級女子中學",
    "address":"970 花蓮縣花蓮市菁華街２號",
    "lat":23.9796522,
    "lng":121.615153,
    "logo":"http://www.hlgs.hlc.edu.tw/2010/themes/neoyijing/img/logo.png",
    "index": "4",
    "start": "4/15",
    "end": "4/17"
  },
  {
    "area": "全區",
    "name": "國立彰化高級商業職業學校",
    "index": "5",
    "start": "4/20",
    "end": "4/22上午",
    "address": "彰化市南郭路一段326號",
    "lat": 24.0729395,
    "lng": 120.5531255
  },
  {
    "area": "中區",
    "name": "國立大甲高級工業職業學校",
    "address" : "437臺中市大甲區頂店里開元路71號",
    "lat":24.3466762,
    "lng":120.6400823,
    "index": "5",
    "start": "4/20",
    "end": "4/22上午"
  },
  {
    "area": "南區",
    "name": "國立臺南女子高級中學",
    "logo":"http://upload.wikimedia.org/wikipedia/zh/thumb/7/7d/Tngsh_emblem.svg/150px-Tngsh_emblem.svg.png",
    "address":"70047臺南市中西區大埔街97號",
    "lat":22.9872458,
    "lng":120.2065307,
    "index": "5",
    "start": "4/20",
    "end": "4/22上午"
  },
  {
    "area": "北區",
    "name": "國立華僑高級中等學校",
    "address":"22057新北市板橋區大觀路一段32號",
    "lat":25.007008,
    "lng":121.446296,
    "index": "5",
    "start": "4/20",
    "end": "4/22上午"
  },
  {
    "area": "東區",
    "name": "財團法人慈濟大學附中",
    "lat":23.999744,
    "lng":121.574209,
    "address":"970 花蓮市介仁街178號",
    "index": "5",
    "start": "4/20",
    "end": "4/22"
  },
  {
    "area": "高屏區",
    "name": "高雄市立文山高中",
    "address":"高雄市鳥松區大埤路31號 ",
    "lat":22.648443,
    "lng":120.353643,
    "index": "5",
    "start": "4/20",
    "end": "4/22上午"
  },
  {
    "area": "全區",
    "name": "國立溪湖高級中學",
    "index": "6",
    "start": "4/22",
    "end": "4/24",
    "address": "51452彰化縣溪湖鎮大溪路二段86號",
    "lat": 23.9680344,
    "lng": 120.4871833
  },
  {
    "area": "中區",
    "name": "臺中市立中港高級中學",
    "lat":24.244221,
    "lng":120.542189,
    "address":"43545台中市梧棲區文昌路400號",
    "index": "6",
    "start": "4/22",
    "end": "4/24  "
  },
  {
    "area": "南區",
    "name": "國立家齊女子高級中學",
    "lat":22.981624,
    "lng":120.200817,
    "address":"700 台南市健康路一段342號 ",
    "index": "6",
    "start": "4/22",
    "end": "4/24"
  },
  {
    "area": "北區",
    "name": "新北市光仁高級中學",
    "lat":25.018298,
    "lng":121.476472,
    "address":"22067 新北市 板橋區中山路二段255巷18號",
    "index": "6",
    "start": "4/22",
    "end": "4/24"
  },
  {
    "area": "東區",
    "name": "花蓮縣立體育實驗高中",
    "lat":24.004408,
    "lng":121.584804,
    "address":"花蓮縣花蓮市達固湖灣大路21號",
    "index": "6",
    "start": "4/22",
    "end": "4/24"
  },
  {
    "area": "高屏區",
    "name": "高雄市立仁武高中",
    "lat":22.703159,
    "lng":120.35509,
    "address":"(81461)高雄市仁武區仁林路20號",
    "index": "6",
    "start": "4/22",
    "end": "4/24"
  },
  {
    "area": "全區",
    "name": "國立臺中女子高級中學",
    "index": "7",
    "start": "4/27",
    "end": "4/29",
    "address": "403 台中市西區自由路一段 95 號",
    "lat": 24.1360434,
    "lng": 120.6777654,
    "url": "http://campus.tcgs.tc.edu.tw/web/tcgs/"
  },
  {
    "area": "南區",
    "name": "國立新豐高級中學",
    "lat":22.972746,
    "lng":120.295724,
    "address":"711台南市歸仁區中正北路一段148號",
    "index": "7",
    "start": "4/27",
    "end": "4/29 "
  },
  {
    "area": "北區",
    "name": "新北市立板橋高級中學",
    "index": "7",
    "start": "4/27",
    "end": "4/29",
    "address": " 新北市板橋區文化路一段25號",
    "lat": 25.0116783,
    "lng": 121.4590795,
    "url": "http://www.pcsh.ntpc.edu.tw/"
  },
  {
    "area": "高屏區",
    "name": "屏東縣立東港高中",
    "lat":22.464924,
    "lng":120.455299,
    "address":"928屏東縣東港鎮船頭路1號",
    "index": "7",
    "start": "4/27",
    "end": "4/29上午"
  },
  {
    "area": "高屏區",
    "name": "國立內埔農工",
    "lat":22.709518,
    "lng":120.642205,
    "address":"912屏東縣內埔鄉水門村成功路83號",
    "index": "8",
    "start": "4/29",
    "end": "5/1"
  },
  {
    "area": "全區",
    "name": "國立嘉義高級家事職業學校",
    "index": "9",
    "start": "5/4",
    "end": "5/6上午",
    "address": "嘉義市市宅街57號",
    "lat": 23.4717071,
    "lng": 120.4586978
  },
  {
    "area": "中區",
    "name": "國立苗栗高級中學",
    "address":"360 苗栗市至公路183號",
    "lat":24.5594264,
    "lng":120.8166344,
    "index": "9",
    "start": "5/4",
    "end": "5/6上午"
  },
  {
    "area": "南區",
    "name": "國立新化高級工業職業學校",
    "lat":23.037254,
    "lng":120.318693,
    "address":"712台南市新化區信義路54號",
    "index": "9",
    "start": "5/4",
    "end": "5/6上午"
  },
  {
    "area": "東區",
    "name": "國立關山工商",
    "lat":23.04733,
    "lng":121.159609,
    "address":"95642 臺東縣關山鎮民權路58號",
    "index": "9",
    "start": "5/04",
    "end": "5/06"
  },
  {
    "area": "北區",
    "name": "新北市私立豫章高級工商職業學校",
    "lat":24.99737,
    "lng":121.458729,
    "address":"新北市板橋區四川路一段391號",
    "index": "10",
    "start": "5/5",
    "end": "5/7"
  },
  {
    "area": "高屏區",
    "name": "國立屏東女中",
    "lat":22.67434,
    "lng":120.493676,
    "address":"900屏東市仁愛路94號",
    "index": "10",
    "start": "5/5",
    "end": "5/7"
  },
  {
    "area": "全區",
    "name": "國立新營高級工業職業學校",
    "index": "11",
    "start": "5/6下午",
    "end": "5/8",
    "address": "台南市新營區中正路六十八號",
    "lat": 23.3132755,
    "lng": 120.3168308
  },
  {
    "area": "中區",
    "name": "國立苗栗高級農工職業學校",
    "lat":24.556048,
    "lng":120.832846,
    "address":"360 苗栗市經國路2段491號",
    "index": "11",
    "start": "5/6",
    "end": "5/8"
  },
  {
    "area": "南區",
    "name": "國立新化高級中學",
    "lat":23.040457,
    "lng":120.30934,
    "address":"71251 臺南市新化區忠孝路2號",
    "index": "11",
    "start": "5/6",
    "end": "5/8"
  },
  {
    "area": "中區",
    "name": "國立苗栗高級商業職業學校",
    "lat":24.557032,
    "lng":120.815298,
    "address":"台灣苗栗市電台街七號",
    "index": "12",
    "start": "5/11",
    "end": "5/13上午"
  },
  {
    "area": "高屏區",
    "name": "高雄市立前鎮高中",
    "lat":22.586802,
    "lng":120.319771,
    "address":"高雄市前鎮區鎮中路132號",
    "index": "12",
    "start": "5/11",
    "end": "5/13上午"
  },
  {
    "area": "中區",
    "name": "國立新竹高級中學",
    "lat":24.794266,
    "lng":120.981018,
    "address":"300 新竹市學府路36號",
    "index": "13",
    "start": "5/13",
    "end": "5/15"
  },
  {
    "area": "高屏區",
    "name": "高雄市立瑞祥高中",
    "lat":22.601988,
    "lng":120.32497,
    "address":"高雄市前鎮區班超路63號",
    "index": "13",
    "start": "5/13",
    "end": "5/15"
  },
  {
    "area": "全區",
    "name": "國立臺南高級商業職業學校",
    "index": "14",
    "start": "5/18",
    "end": "5/20上午",
    "address": "702臺南市南區健康路一段327號",
    "lat": 22.9812339,
    "lng": 120.202298
  },
  {
    "area": "中區",
    "name": "國立新竹高級商業職業學校",
    "lat":24.797184,
    "lng":120.986483,
    "address":"30068 新竹市學府路128號",
    "index": "14",
    "start": "5/18",
    "end": "5/20上午"
  },
  {
    "area": "東區",
    "name": "國立臺東女中",
    "lat":22.760885,
    "lng":121.154214,
    "address":"950 臺東縣臺東市四維路一段690號",
    "index": "14",
    "start": "5/18",
    "end": "5/20"
  },
  {
    "area": "南區",
    "name": "國立善化高級中學",
    "lat":23.129921,
    "lng":120.300794,
    "address":"74169台南市善化區大成路195號",
    "url":"http://www.shsh.tnc.edu.tw/",
    "index": "15",
    "start": "5/19",
    "end": "5/21"
  },
  {
    "area": "北區",
    "name": "新北市立光復高級中學",
    "lat":25.017318,
    "lng":121.482958,
    "address":"新北市板橋區光環路一段7號",
    "url":"http://www.gfhs.ntpc.edu.tw/",
    "index": "15",
    "start": "5/19",
    "end": "5/21"
  },
  {
    "area": "高屏區",
    "name": "高雄市立高雄中學",
    "lat":22.638905,
    "lng":120.298292,
    "address":"80748高雄市三民區建國三路50號",
    "logo":"http://school.kh.edu.tw/upload/269/style/bottom.jpg",
    "index": "15",
    "start": "5/19",
    "end": "5/21"
  },
  {
    "area": "全區",
    "name": "國立臺南高級海事水產職業學校",
    "index": "16",
    "start": "5/20下午",
    "end": "5/22",
    "address": "臺南市安平區世平路ㄧ號",
    "lat": 22.9935902,
    "lng": 120.1517736
  },
  {
    "area": "中區",
    "name": "國立新竹高級工業職業學校",
    "lat":24.809504,
    "lng":120.983145,
    "address":"300新竹市中華路二段二號",
    "index": "16",
    "start": "5/20",
    "end": "5/22"
  },
  {
    "area": "東區",
    "name": "國立臺東高中",
    "lat":22.748227,
    "lng":121.146767,
    "address":"台東市中華路一段721號",
    "index": "16",
    "start": "5/20",
    "end": "5/22"
  },
  {
    "area": "全區",
    "name": "高雄市私立中華藝術學校 ",
    "index": "17",
    "start": "5/25",
    "end": "5/27上午",
    "address": "804高雄市鼓山區美術館89號",
    "lat": 22.6546495,
    "lng": 120.2891478,
    "url": "http://www.charts.kh.edu.tw/"
  },
  {
    "area": "中區",
    "name": "國立竹東高級中學",
    "lat":24.732995,
    "lng":121.088225,
    "address":"310 新竹縣竹東鎮大林路2號",
    "index": "17",
    "start": "5/25",
    "end": "5/27上午"
  },
  {
    "area": "南區",
    "name": "臺南市天主教聖功女子高級中學",
    "lat":23.014844,
    "lng":120.221297,
    "address":"臺南市北區北園街八十七巷六十四號",
    "index": "17",
    "start": "5/25",
    "end": "5/27上午"
  },
  {
    "area": "東區",
    "name": "國立臺東高商",
    "address":"950台東縣台東市正氣路440號",
    "lat":22.7572289,
    "lng":121.1450126,
    "index": "17",
    "start": "5/25",
    "end": "5/27"
  },
  {
    "area": "高屏區",
    "name": "高雄市私立明誠高中",
    "lat":22.665899,
    "lng":120.292081,
    "address":"804 臺灣高雄市鼓山區中華一路97號",
    "logo": "http://www.mcsh.kh.edu.tw/images/20141211093411.png",
    "index": "17",
    "start": "5/25",
    "end": "5/27"
  },
  {
    "area": "北區",
    "name": "新北市立海山高級中學",
    "lat":25.010675,
    "lng":121.471684,
    "address":"220 新北市板橋區漢生東路215號",
    "index": "18",
    "start": "5/26",
    "end": "5/28"
  },
  {
    "area": "全區",
    "name": "國立東港高級海事水產職業學校",
    "lat":22.465307,
    "lng":120.442065,
    "index": "19",
    "start": "5/27下午",
    "end": "5/29",
    "address": "屏東縣東港鎮豐漁街66號",
    "url": "http://www.tkms.ptc.edu.tw/ischool/publish_page/0/"
  },
  {
    "area": "中區",
    "name": "私立東泰高級中學",
    "lat":24.711567,
    "lng":121.098335,
    "address":"310  新竹縣竹東鎮東峰路343號",
    "index": "19",
    "start": "5/27",
    "end": "5/29"
  },
  {
    "area": "南區",
    "name": "臺南市天主教德光中學",
    "lat":22.979767,
    "lng":120.221511,
    "address":"701台南市東區德光街106號",
    "url":"http://www.tkgsh.tn.edu.tw/",
    "index": "19",
    "start": "5/27",
    "end": "5/29"
  },
  {
    "area": "高屏區",
    "name": "高雄市私立大榮高中",
    "lat":22.653544,
    "lng":120.280327,
    "address":"804 高雄市鼓山區大榮街1號",
    "index": "19",
    "start": "5/27",
    "end": "5/29"
  },
  {
    "area": "全區",
    "name": "國立臺南高級工業職業學校",
    "index": "20",
    "start": "6/1",
    "end": "6/3上午",
    "address": "710 台南市永康區中山南路 193 號",
    "lat": 23.0145585,
    "lng": 120.2335483
  },
  {
    "area": "中區",
    "name": "私立忠信高級中學",
    "lat":24.881078,
    "lng":121.001876,
    "address":"新竹縣新豐鄉忠信街178號",
    "index": "20",
    "start": "6/1",
    "end": "6/3上午"
  },
  {
    "area": "北區",
    "name": "新北市立清水高級中學",
    "lat":24.981828,
    "lng":121.464543,
    "address":"新北市土城區明德路一段72號",
    "index": "20",
    "start": "6/1",
    "end": "6/3"
  },
  {
    "area": "東區",
    "name": "私立育仁高中",
    "address":"95062台東市中興路4段485號",
    "lat":22.7743,
    "lng":121.09284,
    "index": "20",
    "start": "6/1",
    "end": "6/3"
  },
  {
    "area": "南區",
    "name": "國立嘉義高級工業職業學校",
    "lat":23.471359,
    "lng":120.464672,
    "address":"60066嘉義市彌陀路174號",
    "index": "21",
    "start": "6/2",
    "end": "6/4"
  },
  {
    "area": "高屏區",
    "name": "國立鳳新高中",
    "lat":22.613788,
    "lng":120.34247,
    "address":"830 高雄市鳳山區新富路257號",
    "url":"http://www.fhsh.khc.edu.tw/",
    "index": "21",
    "start": "6/2",
    "end": "6/4"
  },
  {
    "area": "全區",
    "name": "國立桃園高級農工職業學校",
    "index": "22",
    "start": "6/3下午",
    "end": "6/5",
    "address": "(33047)桃園市成功路二段144號",
    "lat": 25.0367776,
    "lng": 121.1030575,
    "url": "http://www.tyai.tyc.edu.tw/"
  },
  {
    "area": "中區",
    "name": "私立仰德高級中學",
    "lat":24.88159,
    "lng":121.005197,
    "address":"新竹縣新豐鄉員山村133號",
    "index": "22",
    "start": "6/3",
    "end": "6/5"
  },
  {
    "area": "北區",
    "name": "新北市中華高級中學",
    "address":"新北市土城區城林路二號",
    "url":"http://www.chsh.ntpc.edu.tw/bin/home.php",
    "lat":24.975674,
    "lng":121.438029,
    "index": "22",
    "start": "6/3",
    "end": "6/5"
  },
  {
    "area": "東區",
    "name": "私立公東高工",
    "lat":22.76774,
    "lng":121.135829,
    "address":"95023 台東市中興路一段560號",
    "index": "22",
    "start": "6/3",
    "end": "6/5"
  },
  {
    "area": "全區",
    "name": "新北市立板橋高級中學 ",
    "index": "23",
    "start": "6/8",
    "end": "6/10上午",
    "address": " 新北市板橋區文化路一段25號",
    "lat": 25.0116783,
    "lng": 121.4590795,
    "url": "http://www.pcsh.ntpc.edu.tw/"
  },
  {
    "area": "北區",
    "name": "新北市私立裕德實驗高級中學",
    "lat":24.982634,
    "lng":121.43963,
    "address":"23667 新北市土城區擺接堡路1號",
    "index": "23",
    "start": "6/8",
    "end": "6/10上午"
  },
  {
    "area": "東區",
    "name": "國立臺東大學附屬體育高中",
    "lat":22.765628,
    "lng":121.076423,
    "address":"950台東縣台東市中興路五段399號",
    "index": "23",
    "start": "6/8",
    "end": "6/10"
  },
  {
    "area": "高屏區",
    "name": "高雄市立左營高中",
    "lat":22.693411,
    "lng":120.29602,
    "address":"81344 高雄市左營區海功路55號",
    "index": "23",
    "start": "6/8",
    "end": "6/10上午"
  },
  {
    "area": "全區",
    "name": "臺北市立士林高級商業職業學校",
    "address":"11165 臺北市士林區士商路150號",
    "lat":25.0945958,
    "lng":121.5166109,
    "index": "24",
    "start": "6/10下午",
    "end": "6/12"
  },
  {
    "area": "北區",
    "name": "新北市立北大高級中學",
    "address":"新北市三峽區大義路277號",
    "lat":24.9465719,
    "lng":121.3775937,
    "index": "24",
    "start": "6/10",
    "end": "6/12"
  },
  {
    "area": "東區",
    "name": "縣立蘭嶼高中",
    "address":"952 臺東縣蘭嶼鄉椰油村37號",
    "lat":22.0498373,
    "lng":121.5118563,
    "index": "24",
    "start": "6/10",
    "end": "6/12"
  },
  {
    "area": "高屏區",
    "name": "高雄市立新莊高中",
    "address":"高雄市左營區文慈路 99 號",
    "lat":22.681792,
    "lng":120.317635,
    "index": "24",
    "start": "6/10",
    "end": "6/12"
  },
  {
    "area": "中區",
    "name": "國立龍潭高級中學",
    "lat":24.861317,
    "lng":121.212952,
    "address":"325桃園市龍潭區神龍路155號",
    "index": "25",
    "start": "6/15",
    "end": "6/16"
  },
  {
    "area": "南區",
    "name": "國立嘉義高級中學",
    "address":" (600) 嘉義市大雅路二段738號",
    "lat":23.477199,
    "lng":120.464894,
    "index": "26",
    "start": "6/15",
    "end": "6/17"
  },
  {
    "area": "北區",
    "name": "新北市立明德高級中學",
    "address":"新北市三峽區23742中正路二段399號",
    "lat":24.903838,
    "lng":121.365725,
    "index": "26",
    "start": "6/15",
    "end": "6/17上午"
  },
  {
    "area": "東區",
    "name": "國立成功商水",
    "address":"台東縣成功鎮太平路52號",
    "lat":23.1043261,
    "lng":121.3826485,
    "index": "26",
    "start": "6/15",
    "end": "6/17"
  },
  {
    "area": "全區",
    "name": "新北市立淡水高級商工職業學校",
    "index": "27",
    "start": "6/16",
    "end": "6/18",
    "address": "251 新北市淡水區商工路307號",
    "lat": 25.1867923,
    "lng": 121.4541312,
    "url": "http://www.tsvs.ntpc.edu.tw/"
  },
  {
    "area": "高屏區",
    "name": "高雄市立三民家商",
    "address":"81366 高雄市左營區裕誠路1102號",
    "lat":22.6660181,
    "lng":120.3012351,
    "index": "27",
    "start": "6/16",
    "end": "6/18"
  },
  {
    "area": "中區",
    "name": "私立泉僑高級中學",
    "address":"(32546)桃園市龍潭區中正路佳安段446號",
    "lat":24.847385,
    "lng":121.24491,
    "index": "28",
    "start": "6/17",
    "end": "6/18"
  },
  {
    "area": "北區",
    "name": "新北市私立辭修高級中學",
    "address":"新北市三峽區溪東路251號",
    "lat":24.932064,
    "lng":121.407668,
    "index": "29",
    "start": "6/17",
    "end": "6/19"
  },
  {
    "area": "全區",
    "name": "台中市市立西苑高中",
    "lat":24.186557,
    "lng":120.641847,
    "address":"407台中市西屯區西苑路268號",
    "index": "30",
    "start": "6/22",
    "end": "6/24"
  },
  {
    "area": "中區",
    "name": "國立中央大學附屬中壢高級中學",
    "address":"桃園市中壢區三光路115號",
    "lat":24.962072,
    "lng":121.211168,
    "index": "30",
    "start": "6/22",
    "end": "6/24上午"
  },
  {
    "area": "北區",
    "name": "新北市私立樹人高級家事商業職業學校",
    "lat":24.9947849,
    "lng":121.4191644,
    "index": "30",
    "start": "6/22",
    "end": "6/24"
  },
  {
    "area": "中區",
    "name": "國立中壢高級家事商業職業學校",
    "address":"320 桃園縣中壢市德育路36號",
    "lat":24.95243,
    "lng":121.220004,
    "index": "31",
    "start": "6/24",
    "end": "6/26"
  },
  {
    "area": "北區",
    "name": "新北市立樹林高級中學",
    "address":"23871 新北市樹林區中華路8號",
    "lat":24.983201,
    "lng":121.422804,
    "index": "32",
    "start": "7/7",
    "end": "7/9",
    "comment":"暑期營隊"
  },
  {
    "area": "南區",
    "name": "雲林縣維多利亞實驗高中",
    "address":"640 雲林縣斗六市鎮南路1110 號",
    "lat":23.679668,
    "lng":120.552507,
    "index": "33",
    "start": "7/14",
    "end": "7/16"
  },
  {
    "area": "北區",
    "name": "國立馬祖高級中學",
    "lat":26.154385,
    "lng":119.949867,
    "address":"馬祖南竿介壽村374 號",
    "index": "34",
    "start": "7/20",
    "end": "7/24",
    "comment":"暑期營隊及馬祖地區國中學生代表至馬祖高中參與研習"
  },
  {
    "area": "南區",
    "name": "國立斗六高級中學",
    "address":"64050 雲林縣斗六市民生路224號",
    "lat":23.713283,
    "lng":120.545257,
    "index": "35",
    "start": "7/21",
    "end": "7/23"
  },
  {
    "area": "南區",
    "name": "國立嘉義女子高級中學",
    "lat":23.473656,
    "lng":120.450995,
    "address":"嘉義市垂楊路243號",
    "index": "36",
    "start": "7/28",
    "end": "7/30"
  }
]